{"data":[{"locationId":"01180193","chain":"SHELL COMPANY","address":{"addressLine1":"4108 LAWRENCEVILLE HWY","city":"TUCKER","state":"GA","zipCode":"30084"},"geolocation":{"latitude":33.8511,"longitude":-84.213952,"latLng":"33.851100,-84.2139520"},"name":"Shell Company","departments":[{"departmentId":"10","name":"Gas Station"}]},{"locationId":"01100482","chain":"KROGER","address":{"addressLine1":"4357 Lawrenceville Hwy","city":"Tucker","state":"GA","zipCode":"30084","county":"DEKALB COUNTY"},"geolocation":{"latitude":33.8550929,"longitude":-84.2069937,"latLng":"33.8550929,-84.2069937"},"name":"Kroger - Cofer Crossing","hours":{"timezone":"America/New_York","gmtOffset":"(UTC-05:00) Eastern Time (US Canada)","open24":false,"monday":{"open":"06:00","close":"23:00","open24":false},"tuesday":{"open":"06:00","close":"23:00","open24":false},"wednesday":{"open":"06:00","close":"23:00","open24":false},"thursday":{"open":"06:00","close":"23:00","open24":false},"friday":{"open":"06:00","close":"23:00","open24":false},"saturday":{"open":"06:00","close":"23:00","open24":false},"sunday":{"open":"06:00","close":"23:00","open24":false}},"phone":"7709341104","departments":[{"departmentId":"09","name":"Pharmacy","phone":"7709348322","hours":{"open24":false,"monday":{"open":"09:00","close":"20:00","open24":false},"tuesday":{"open":"09:00","close":"20:00","open24":false},"wednesday":{"open":"09:00","close":"20:00","open24":false},"thursday":{"open":"09:00","close":"20:00","open24":false},"friday":{"open":"09:00","close":"20:00","open24":false},"saturday":{"open":"09:00","close":"18:00","open24":false},"sunday":{"open":"10:00","close":"17:00","open24":false}}},{"departmentId":"0J","name":"Home Chef"},{"departmentId":"23","name":"Drug \u0026 General Merchandise"},{"departmentId":"50","name":"Olive Bar"},{"departmentId":"72","name":"Expresslane"},{"departmentId":"01","name":"Deli"},{"departmentId":"02","name":"Bakery"},{"departmentId":"53","name":"Boar's Head"},{"departmentId":"60","name":"Red Box"},{"departmentId":"44","name":"Beer"},{"departmentId":"45","name":"Wine"},{"departmentId":"12","name":"Cosmetics"},{"departmentId":"13","name":"Cell Phone"},{"departmentId":"62","name":"Urgent Care"},{"departmentId":"65","name":"Money Services"},{"departmentId":"73","name":"Eco Atm"},{"departmentId":"05","name":"Seafood Department"},{"departmentId":"08","name":"Floral"},{"departmentId":"99","name":"Check Cashing"},{"departmentId":"LY","name":"Lottery Tickets"},{"departmentId":"31","name":"Coin Star"},{"departmentId":"69","name":"Online Deli/Bakery Ordering"},{"departmentId":"89","name":"Western Union"},{"departmentId":"63","name":"I-wireless"},{"departmentId":"77","name":"Fried Chicken"},{"departmentId":"21","name":"Self Checkout"},{"departmentId":"55","name":"Atm"},{"departmentId":"46","name":"Sushi"},{"departmentId":"94","name":"Pickup"},{"departmentId":"10","name":"Gas Station","phone":"7709341104","address":{"addressLine1":"4317 Lawrenceville Hwy","city":"Tucker","state":"GA","zipCode":"30084"},"geolocation":{"latitude":33.8550929,"longitude":-84.2069937,"latLng":"33.8550929,-84.2069937"},"offsite":true},{"departmentId":"32","name":"Natural And Organics"},{"departmentId":"76","name":"Rotisserie Chicken"},{"departmentId":"04","name":"Meat Department"},{"departmentId":"26","name":"Kosher Food"}]},{"locationId":"01181728","chain":"SHELL COMPANY","address":{"addressLine1":"1823 MOUNTAIN INDUSTRIAL","city":"TUCKER","state":"GA","zipCode":"30084"},"geolocation":{"latitude":33.836394,"longitude":-84.200248,"latLng":"33.836394,-84.2002480"},"name":"Shell Company","departments":[{"departmentId":"10","name":"Gas Station"}]},{"locationId":"01180592","chain":"SHELL COMPANY","address":{"addressLine1":"4118 LAVISTA ROAD","city":"TUCKER","state":"GA","zipCode":"30084"},"geolocation":{"latitude":33.84681,"longitude":-84.250304,"latLng":"33.846810,-84.2503040"},"name":"Shell Company","departments":[{"departmentId":"10","name":"Gas Station"}]},{"locationId":"01181587","chain":"SHELL COMPANY","address":{"addressLine1":"1307 BROCKETT RD","city":"CLARKSTON","state":"GA","zipCode":"30021"},"geolocation":{"latitude":33.821863,"longitude":-84.231141,"latLng":"33.821863,-84.2311410"},"name":"Shell Company","departments":[{"departmentId":"10","name":"Gas Station"}]},{"locationId":"01100212","chain":"KROGER","address":{"addressLine1":"3959 Lavista Rd Suite A","city":"Tucker","state":"GA","zipCode":"30084","county":"DEKALB COUNTY"},"geolocation":{"latitude":33.843398,"longitude":-84.2558491,"latLng":"33.843398,-84.2558491"},"name":"Kroger - Northlake Lavista","hours":{"timezone":"America/New_York","gmtOffset":"(UTC-05:00) Eastern Time (US Canada)","open24":false,"monday":{"open":"06:00","close":"23:00","open24":false},"tuesday":{"open":"06:00","close":"23:00","open24":false},"wednesday":{"open":"06:00","close":"23:00","open24":false},"thursday":{"open":"06:00","close":"23:00","open24":false},"friday":{"open":"06:00","close":"23:00","open24":false},"saturday":{"open":"06:00","close":"23:00","open24":false},"sunday":{"open":"06:00","close":"23:00","open24":false}},"phone":"7709396304","departments":[{"departmentId":"16","name":"Drive-thru Pharmacy"},{"departmentId":"55","name":"Atm"},{"departmentId":"77","name":"Fried Chicken"},{"departmentId":"05","name":"Seafood Department"},{"departmentId":"23","name":"Drug \u0026 General Merchandise"},{"departmentId":"44","name":"Beer"},{"departmentId":"46","name":"Sushi"},{"departmentId":"94","name":"Pickup"},{"departmentId":"67","name":"Electric Vehicle Charging Station"},{"departmentId":"89","name":"Western Union"},{"departmentId":"02","name":"Bakery"},{"departmentId":"08","name":"Floral"},{"departmentId":"63","name":"I-wireless"},{"departmentId":"LY","name":"Lottery Tickets"},{"departmentId":"13","name":"Cell Phone"},{"departmentId":"26","name":"Kosher Food"},{"departmentId":"31","name":"Coin Star"},{"departmentId":"65","name":"Money Services"},{"departmentId":"72","name":"Expresslane"},{"departmentId":"99","name":"Check Cashing"},{"departmentId":"21","name":"Self Checkout"},{"departmentId":"45","name":"Wine"},{"departmentId":"60","name":"Red Box"},{"departmentId":"69","name":"Online Deli/Bakery Ordering"},{"departmentId":"01","name":"Deli"},{"departmentId":"09","name":"Pharmacy","phone":"7709346442","hours":{"open24":false,"monday":{"open":"09:00","close":"20:00","open24":false},"tuesday":{"open":"09:00","close":"20:00","open24":false},"wednesday":{"open":"09:00","close":"20:00","open24":false},"thursday":{"open":"09:00","close":"20:00","open24":false},"friday":{"open":"09:00","close":"20:00","open24":false},"saturday":{"open":"09:00","close":"18:00","open24":false},"sunday":{"open":"10:00","close":"17:00","open24":false}}},{"departmentId":"0J","name":"Home Chef"},{"departmentId":"12","name":"Cosmetics"},{"departmentId":"32","name":"Natural And Organics"},{"departmentId":"53","name":"Boar's Head"},{"departmentId":"76","name":"Rotisserie Chicken"},{"departmentId":"83","name":"Beach Merchandise"}]},{"locationId":"01180437","chain":"SHELL COMPANY","address":{"addressLine1":"2960 MOUNTAIN INDUSTRIAL","city":"TUCKER","state":"GA","zipCode":"30084"},"geolocation":{"latitude":33.867012,"longitude":-84.188506,"latLng":"33.867012,-84.1885060"},"name":"Shell Company","departments":[{"departmentId":"10","name":"Gas Station"}]},{"locationId":"01181434","chain":"SHELL COMPANY","address":{"addressLine1":"3155 PLEASANTDALE RD","city":"TUCKER","state":"GA","zipCode":"30084"},"geolocation":{"latitude":33.884451,"longitude":-84.220471,"latLng":"33.884451,-84.2204710"},"name":"Shell Company","departments":[{"departmentId":"10","name":"Gas Station"}]},{"locationId":"01181723","chain":"SHELL COMPANY","address":{"addressLine1":"3625 CHAMBLEE TUCKER RD","city":"CHAMBLEE","state":"GA","zipCode":"30341"},"geolocation":{"latitude":33.883361,"longitude":-84.245754,"latLng":"33.883361,-84.2457540"},"name":"Shell Company","departments":[{"departmentId":"10","name":"Gas Station"}]},{"locationId":"01100685","chain":"KROGER","address":{"addressLine1":"3559 Chamblee Tucker Rd","city":"Atlanta","state":"GA","zipCode":"30341","county":"DEKALB COUNTY"},"geolocation":{"latitude":33.883897,"longitude":-84.247698,"latLng":"33.883897,-84.247698"},"name":"Kroger - Kroger Atlanta","hours":{"timezone":"America/New_York","gmtOffset":"(UTC-05:00) Eastern Time (US Canada)","open24":false,"monday":{"open":"06:00","close":"23:00","open24":false},"tuesday":{"open":"06:00","close":"23:00","open24":false},"wednesday":{"open":"06:00","close":"23:00","open24":false},"thursday":{"open":"06:00","close":"23:00","open24":false},"friday":{"open":"06:00","close":"23:00","open24":false},"saturday":{"open":"06:00","close":"23:00","open24":false},"sunday":{"open":"06:00","close":"23:00","open24":false}},"phone":"7702436211","departments":[{"departmentId":"09","name":"Pharmacy","phone":"7702436220","hours":{"open24":false,"monday":{"open":"09:00","close":"20:00","open24":false},"tuesday":{"open":"09:00","close":"20:00","open24":false},"wednesday":{"open":"09:00","close":"20:00","open24":false},"thursday":{"open":"09:00","close":"20:00","open24":false},"friday":{"open":"09:00","close":"20:00","open24":false},"saturday":{"open":"09:00","close":"18:00","open24":false},"sunday":{"open":"10:00","close":"17:00","open24":false}}},{"departmentId":"10","name":"Gas Station","hours":{"open24":false,"monday":{"open":"05:00","close":"23:00","open24":false},"tuesday":{"open":"05:00","close":"23:00","open24":false},"wednesday":{"open":"05:00","close":"23:00","open24":false},"thursday":{"open":"05:00","close":"23:00","open24":false},"friday":{"open":"05:00","close":"23:00","open24":false},"saturday":{"open":"05:00","close":"23:00","open24":false},"sunday":{"open":"05:00","close":"23:00","open24":false}}},{"departmentId":"66","name":"Murray's Cheese"},{"departmentId":"69","name":"Online Deli/Bakery Ordering"},{"departmentId":"94","name":"Pickup"},{"departmentId":"LY","name":"Lottery Tickets"}]}],"meta":{"pagination":{"start":1,"limit":10,"total":10}}}